[{"venue_id":"stringfilter","title":"StringFilter","latitude":"MapsLat - Hidden - NoFilter","longitude":"MapsLong - Hidden - NoFilter","full_address":"MapsTooltip - Hidden - StringFilter","postal_code":null,"country":"CategoryFilter","subdivision":"CSVFilter","municipality":"StringFilter","neighborhood":"StringFilter"},{"venue_id":"nikkei_national_museum_&_cultural_centre","title":"Nikkei National Museum & Cultural Centre","latitude":"49.2177915","longitude":"-122.9645849","full_address":"Nikkei National Museum & Cultural Centre Burnaby BC Canada ","postal_code":null,"country":"Canada","subdivision":"BC","municipality":"Burnaby","neighborhood":"Middlegate"},{"venue_id":"idolcon","title":"IdolCon","latitude":"37.09024","longitude":"-95.712891","full_address":"IdolCon Online Internet USA ","postal_code":null,"country":"USA","subdivision":"Internet","municipality":"Online","neighborhood":"Twitch"},{"venue_id":"best_western_plus_silverdale_beach_hotel","title":"Best Western Plus Silverdale Beach Hotel","latitude":"47.6491477","longitude":"-122.6910949","full_address":"Best Western Plus Silverdale Beach Hotel Silverdale Washington USA ","postal_code":null,"country":"USA","subdivision":"Washington","municipality":"Silverdale","neighborhood":"Silverdale"},{"venue_id":"vancouver_japanese_language_school","title":"Vancouver Japanese Language School","latitude":"49.2841136","longitude":"-123.0937815","full_address":"Vancouver Japanese Language School Vancouver BC Canada ","postal_code":null,"country":"Canada","subdivision":"BC","municipality":"Vancouver","neighborhood":"Japantown"},{"venue_id":"biltmore_cabaret","title":"Biltmore Cabaret","latitude":"49.2603959","longitude":"-123.0966792","full_address":"Biltmore Cabaret Vancouver BC Canada ","postal_code":null,"country":"Canada","subdivision":"BC","municipality":"Vancouver","neighborhood":"Mount Pleasant"},{"venue_id":"けやきひろば","title":"けやきひろば","latitude":"35.8932845","longitude":"139.6311445","full_address":"けやきひろば さいたま市 埼玉県 日本 ","postal_code":null,"country":"日本","subdivision":"埼玉県","municipality":"さいたま市","neighborhood":"新都心"},{"venue_id":"club251","title":"Club251","latitude":"35.6582938","longitude":"139.6673528","full_address":"Club251 世田谷区 東京都 日本 ","postal_code":null,"country":"日本","subdivision":"東京都","municipality":"世田谷区","neighborhood":"下北沢"},{"venue_id":"liveholic","title":"LiveHolic","latitude":"35.6614177","longitude":"139.6690736","full_address":"LiveHolic 世田谷区 東京都 日本 ","postal_code":null,"country":"日本","subdivision":"東京都","municipality":"世田谷区","neighborhood":"下北沢"},{"venue_id":"下北沢シャングリラ","title":"下北沢シャングリラ","latitude":"35.660492","longitude":"139.6685124","full_address":"下北沢シャングリラ 世田谷区 東京都 日本 ","postal_code":null,"country":"日本","subdivision":"東京都","municipality":"世田谷区","neighborhood":"下北沢"},{"venue_id":"クルーズtvスタジオ","title":"クルーズTVスタジオ","latitude":"35.638269","longitude":"139.6624753","full_address":"クルーズTVスタジオ 世田谷区 東京都 日本 ","postal_code":null,"country":"日本","subdivision":"東京都","municipality":"世田谷区","neighborhood":"駒沢大学"},{"venue_id":"室町三井ホール","title":"室町三井ホール","latitude":"35.6880566","longitude":"139.7724632","full_address":"室町三井ホール 中央区 東京都 日本 ","postal_code":null,"country":"日本","subdivision":"東京都","municipality":"中央区","neighborhood":"日本橋"},{"venue_id":"natuluck銀座","title":"NATULUCK銀座","latitude":"35.673435","longitude":"139.7677744","full_address":"NATULUCK銀座 中央区 東京都 日本 ","postal_code":null,"country":"日本","subdivision":"東京都","municipality":"中央区","neighborhood":"銀座"},{"venue_id":"benoa_ginza","title":"Benoa Ginza","latitude":"35.6690284","longitude":"139.7648742","full_address":"Benoa Ginza 中央区 東京都 日本 ","postal_code":null,"country":"日本","subdivision":"東京都","municipality":"中央区","neighborhood":"銀座"},{"venue_id":"tokyo_international_forum","title":"Tokyo International Forum","latitude":"35.6767429","longitude":"139.7637532","full_address":"Tokyo International Forum 中央区 東京都 日本 ","postal_code":null,"country":"日本","subdivision":"東京都","municipality":"中央区","neighborhood":"銀座"},{"venue_id":"studio_m","title":"STUDIO M","latitude":"35.6928615","longitude":"139.6743451","full_address":"STUDIO M 中野区 東京都 日本 ","postal_code":null,"country":"日本","subdivision":"東京都","municipality":"中野区","neighborhood":"弥生町"},{"venue_id":"古民家冨田邸","title":"古民家冨田邸","latitude":"35.782426","longitude":"139.7347671","full_address":"古民家冨田邸 北区 東京都 日本 ","postal_code":null,"country":"日本","subdivision":"東京都","municipality":"北区","neighborhood":"志茂"},{"venue_id":"赤羽レニーalpha","title":"赤羽レニーAlpha","latitude":"35.7790173","longitude":"139.7223472","full_address":"赤羽レニーAlpha 北区 東京都 日本 ","postal_code":null,"country":"日本","subdivision":"東京都","municipality":"北区","neighborhood":"赤羽"},{"venue_id":"studio_assemblage_higashijujo","title":"Studio Assemblage Higashijujo","latitude":"35.761251","longitude":"139.732103","full_address":"Studio Assemblage Higashijujo 北区 東京都 日本 ","postal_code":null,"country":"日本","subdivision":"東京都","municipality":"北区","neighborhood":"東十条"},{"venue_id":"アメリカンビレッジ","title":"アメリカンビレッジ","latitude":"26.3169528","longitude":"127.7578503","full_address":"アメリカンビレッジ 北谷町 沖縄県 日本 ","postal_code":null,"country":"日本","subdivision":"沖縄県","municipality":"北谷町","neighborhood":"美浜"},{"venue_id":"日比谷公園","title":"日比谷公園","latitude":"35.6740123","longitude":"139.7562635","full_address":"日比谷公園 千代田区 東京都 日本 ","postal_code":null,"country":"日本","subdivision":"東京都","municipality":"千代田区","neighborhood":"日比谷"},{"venue_id":"有楽町alternative_theatre","title":"有楽町Alternative Theatre","latitude":"35.673596","longitude":"139.7634519","full_address":"有楽町Alternative Theatre 千代田区 東京都 日本 ","postal_code":null,"country":"日本","subdivision":"東京都","municipality":"千代田区","neighborhood":"有楽町"},{"venue_id":"ヒューリックホール東京","title":"ヒューリックホール東京","latitude":"35.673653","longitude":"139.762373","full_address":"ヒューリックホール東京 千代田区 東京都 日本 ","postal_code":null,"country":"日本","subdivision":"東京都","municipality":"千代田区","neighborhood":"有楽町"},{"venue_id":"akbaカルチャーズ劇場","title":"AKBAカルチャーズ劇場","latitude":"35.6994777","longitude":"139.7703721","full_address":"AKBAカルチャーズ劇場 千代田区 東京都 日本 ","postal_code":null,"country":"日本","subdivision":"東京都","municipality":"千代田区","neighborhood":"秋葉原"},{"venue_id":"秋葉原zest","title":"秋葉原Zest","latitude":"35.7004372","longitude":"139.7698507","full_address":"秋葉原Zest 千代田区 東京都 日本 ","postal_code":null,"country":"日本","subdivision":"東京都","municipality":"千代田区","neighborhood":"秋葉原"},{"venue_id":"heaven's_gate","title":"Heaven's Gate","latitude":"35.6979945","longitude":"139.7724037","full_address":"Heaven's Gate 千代田区 東京都 日本 ","postal_code":null,"country":"日本","subdivision":"東京都","municipality":"千代田区","neighborhood":"秋葉原"},{"venue_id":"twinbox_akihabara","title":"Twinbox Akihabara","latitude":"35.7004663","longitude":"139.7701078","full_address":"Twinbox Akihabara 千代田区 東京都 日本 ","postal_code":null,"country":"日本","subdivision":"東京都","municipality":"千代田区","neighborhood":"秋葉原"},{"venue_id":"秋葉原周辺","title":"秋葉原周辺","latitude":"35.698383","longitude":"139.7730717","full_address":"秋葉原周辺 千代田区 東京都 日本 ","postal_code":null,"country":"日本","subdivision":"東京都","municipality":"千代田区","neighborhood":"秋葉原"},{"venue_id":"kfc_akihabara","title":"KFC Akihabara","latitude":"35.6985574","longitude":"139.7705927","full_address":"KFC Akihabara 千代田区 東京都 日本 ","postal_code":null,"country":"日本","subdivision":"東京都","municipality":"千代田区","neighborhood":"秋葉原"},{"venue_id":"golf_plaza_active_akiba","title":"Golf Plaza Active AKIBA","latitude":"35.69873","longitude":"139.774847","full_address":"Golf Plaza Active AKIBA 千代田区 東京都 日本 ","postal_code":null,"country":"日本","subdivision":"東京都","municipality":"千代田区","neighborhood":"秋葉原"},{"venue_id":"幕張メッセ","title":"幕張メッセ","latitude":"35.6475369","longitude":"140.0354014","full_address":"幕張メッセ 千葉市 千葉県 日本 ","postal_code":null,"country":"日本","subdivision":"千葉県","municipality":"千葉市","neighborhood":"幕張"},{"venue_id":"グレースバリ上野公園前店","title":"グレースバリ上野公園前店","latitude":"35.7106181","longitude":"139.7729652","full_address":"グレースバリ上野公園前店 台東区 東京都 日本 ","postal_code":null,"country":"日本","subdivision":"東京都","municipality":"台東区","neighborhood":"上野"},{"venue_id":"上野恩賜公園_野外ステージ","title":"上野恩賜公園 野外ステージ","latitude":"35.7098629","longitude":"139.7707191","full_address":"上野恩賜公園 野外ステージ 台東区 東京都 日本 ","postal_code":null,"country":"日本","subdivision":"東京都","municipality":"台東区","neighborhood":"上野"},{"venue_id":"tokyo_kinema_club","title":"Tokyo Kinema Club","latitude":"35.7207475","longitude":"139.7802173","full_address":"Tokyo Kinema Club 台東区 東京都 日本 ","postal_code":null,"country":"日本","subdivision":"東京都","municipality":"台東区","neighborhood":"根岸"},{"venue_id":"tokyo_link's_hall","title":"Tokyo Link's Hall","latitude":"35.698213","longitude":"139.784155","full_address":"Tokyo Link's Hall 台東区 東京都 日本 ","postal_code":null,"country":"日本","subdivision":"東京都","municipality":"台東区","neighborhood":"浅草橋"},{"venue_id":"浅草橋ヒューリックホール","title":"浅草橋ヒューリックホール","latitude":"35.697892","longitude":"139.78441","full_address":"浅草橋ヒューリックホール 台東区 東京都 日本 ","postal_code":null,"country":"日本","subdivision":"東京都","municipality":"台東区","neighborhood":"浅草橋"},{"venue_id":"浅草橋周辺","title":"浅草橋周辺","latitude":"35.6990555","longitude":"139.7843792","full_address":"浅草橋周辺 千代田区 東京都 日本 ","postal_code":null,"country":"日本","subdivision":"東京都","municipality":"千代田区","neighborhood":"浅草橋"},{"venue_id":"akiba_colors","title":"AKIBA COLORS","latitude":"35.7016275","longitude":"139.7769435","full_address":"AKIBA COLORS 台東区 東京都 日本 ","postal_code":null,"country":"日本","subdivision":"東京都","municipality":"台東区","neighborhood":"秋葉原"},{"venue_id":"cosmic_lab","title":"Cosmic Lab","latitude":"35.7035507","longitude":"139.7715894","full_address":"Cosmic Lab 千代田区 東京都 日本 ","postal_code":null,"country":"日本","subdivision":"東京都","municipality":"千代田区","neighborhood":"秋葉原"},{"venue_id":"twinbox_garage","title":"Twinbox Garage","latitude":"35.7003708","longitude":"139.7700771","full_address":"Twinbox Garage 千代田区 東京都 日本 ","postal_code":null,"country":"日本","subdivision":"東京都","municipality":"千代田区","neighborhood":"秋葉原"},{"venue_id":"新世紀ホール","title":"新世紀ホール","latitude":"35.7207641","longitude":"139.7801513","full_address":"新世紀ホール 台東区 東京都 日本 ","postal_code":null,"country":"日本","subdivision":"東京都","municipality":"台東区","neighborhood":"鶯谷"},{"venue_id":"伏見lion_theater","title":"伏見Lion Theater","latitude":"35.1647409","longitude":"136.8955239","full_address":"伏見Lion Theater 名古屋市 愛知県 日本 ","postal_code":null,"country":"日本","subdivision":"愛知県","municipality":"名古屋市","neighborhood":"伏見"},{"venue_id":"fairy_tales","title":"Fairy Tales","latitude":"35.142347","longitude":"136.9555163","full_address":"Fairy Tales 名古屋市 愛知県 日本 ","postal_code":null,"country":"日本","subdivision":"愛知県","municipality":"名古屋市","neighborhood":"八事"},{"venue_id":"rad_hall","title":"Rad Hall","latitude":"35.161346","longitude":"136.906721","full_address":"Rad Hall 名古屋市 愛知県 日本 ","postal_code":null,"country":"日本","subdivision":"愛知県","municipality":"名古屋市","neighborhood":"大須"},{"venue_id":"x-hall","title":"X-hall","latitude":"35.1600779","longitude":"136.9020985","full_address":"X-hall 名古屋市 愛知県 日本 ","postal_code":null,"country":"日本","subdivision":"愛知県","municipality":"名古屋市","neighborhood":"大須"},{"venue_id":"m.i.d","title":"M.I.D","latitude":"35.1961315","longitude":"137.003132","full_address":"M.I.D 名古屋市 愛知県 日本 ","postal_code":null,"country":"日本","subdivision":"愛知県","municipality":"名古屋市","neighborhood":"大須"},{"venue_id":"dt.bld","title":"Dt.BLD","latitude":"35.1600018","longitude":"136.8993297","full_address":"Dt.BLD 名古屋市 愛知県 日本 ","postal_code":null,"country":"日本","subdivision":"愛知県","municipality":"名古屋市","neighborhood":"大須"},{"venue_id":"nagoya_reny_limited","title":"Nagoya ReNY Limited","latitude":"35.1660017","longitude":"136.9082345","full_address":"Nagoya ReNY Limited 名古屋市 愛知県 日本 ","postal_code":null,"country":"日本","subdivision":"愛知県","municipality":"名古屋市","neighborhood":"栄"},{"venue_id":"栄広場","title":"栄広場","latitude":"35.1694011","longitude":"136.9071532","full_address":"栄広場 名古屋市 愛知県 日本 ","postal_code":null,"country":"日本","subdivision":"愛知県","municipality":"名古屋市","neighborhood":"栄"},{"venue_id":"nadya_park","title":"Nadya Park","latitude":"35.1654433","longitude":"136.9051708","full_address":"Nadya Park 名古屋市 愛知県 日本 ","postal_code":null,"country":"日本","subdivision":"愛知県","municipality":"名古屋市","neighborhood":"栄"},{"venue_id":"さくらパンダ広場","title":"さくらパンダ広場","latitude":"35.0915962","longitude":"136.878896","full_address":"さくらパンダ広場 名古屋市 愛知県 日本 ","postal_code":null,"country":"日本","subdivision":"愛知県","municipality":"名古屋市","neighborhood":"栄"},{"venue_id":"versus東海ホール","title":"Versus東海ホール","latitude":"35.1670255","longitude":"136.8984795","full_address":"Versus東海ホール 名古屋市 愛知県 日本 ","postal_code":null,"country":"日本","subdivision":"愛知県","municipality":"名古屋市","neighborhood":"栄"},{"venue_id":"club-saru","title":"CLUB-SARU","latitude":"35.145959","longitude":"136.9079184","full_address":"CLUB-SARU 名古屋市 愛知県 日本 ","postal_code":null,"country":"日本","subdivision":"愛知県","municipality":"名古屋市","neighborhood":"金山"},{"venue_id":"金山garden","title":"金山Garden","latitude":"35.1483283","longitude":"136.899386","full_address":"金山Garden 名古屋市 愛知県 日本 ","postal_code":null,"country":"日本","subdivision":"愛知県","municipality":"名古屋市","neighborhood":"金山"},{"venue_id":"bhスタジオ","title":"BHスタジオ","latitude":"35.171493","longitude":"136.901236","full_address":"BHスタジオ 名古屋市 愛知県 日本 ","postal_code":null,"country":"日本","subdivision":"愛知県","municipality":"名古屋市","neighborhood":"錦"},{"venue_id":"鶴舞公園","title":"鶴舞公園","latitude":"35.1550781","longitude":"136.9200817","full_address":"鶴舞公園 名古屋市 愛知県 日本 ","postal_code":null,"country":"日本","subdivision":"愛知県","municipality":"名古屋市","neighborhood":"鶴舞"},{"venue_id":"五反田g+","title":"五反田G+","latitude":"35.6270835","longitude":"139.7223125","full_address":"五反田G+ 品川区 東京都 日本 ","postal_code":null,"country":"日本","subdivision":"東京都","municipality":"品川区","neighborhood":"五反田"},{"venue_id":"五反田g2","title":"五反田G2","latitude":"35.6270835","longitude":"139.7223125","full_address":"五反田G2 品川区 東京都 日本 ","postal_code":null,"country":"日本","subdivision":"東京都","municipality":"品川区","neighborhood":"五反田"},{"venue_id":"五反田g5","title":"五反田G5","latitude":"35.627041","longitude":"139.7213998","full_address":"五反田G5 品川区 東京都 日本 ","postal_code":null,"country":"日本","subdivision":"東京都","municipality":"品川区","neighborhood":"五反田"},{"venue_id":"五反田the_live_station","title":"五反田THE LIVE STATION","latitude":"35.6341427","longitude":"139.717593","full_address":"五反田THE LIVE STATION 品川区 東京都 日本 ","postal_code":null,"country":"日本","subdivision":"東京都","municipality":"品川区","neighborhood":"五反田"},{"venue_id":"intercity_hall","title":"Intercity Hall","latitude":"35.6253398","longitude":"139.7417095","full_address":"Intercity Hall 品川区 東京都 日本 ","postal_code":null,"country":"日本","subdivision":"東京都","municipality":"品川区","neighborhood":"品川"},{"venue_id":"j-square_shinagawa","title":"J-Square Shinagawa","latitude":"35.6284017","longitude":"139.7430249","full_address":"J-Square Shinagawa 品川区 東京都 日本 ","postal_code":null,"country":"日本","subdivision":"東京都","municipality":"品川区","neighborhood":"品川"},{"venue_id":"shinagawa_the_grand_hall","title":"Shinagawa The Grand Hall","latitude":"35.626638","longitude":"139.7405616","full_address":"Shinagawa The Grand Hall 品川区 東京都 日本 ","postal_code":null,"country":"日本","subdivision":"東京都","municipality":"品川区","neighborhood":"品川"},{"venue_id":"t&t_vacation_rentals","title":"T&T VACATION RENTALS","latitude":"26.4322106","longitude":"127.759011","full_address":"T&T VACATION RENTALS 国頭郡 沖縄県 日本 ","postal_code":null,"country":"日本","subdivision":"沖縄県","municipality":"国頭郡","neighborhood":"真栄田"},{"venue_id":"ryokoku_sunrize","title":"Ryokoku Sunrize","latitude":"35.6951314","longitude":"139.7956673","full_address":"Ryokoku Sunrize 墨田区 東京都 日本 ","postal_code":null,"country":"日本","subdivision":"東京都","municipality":"墨田区","neighborhood":"両国"},{"venue_id":"スカイツリー","title":"スカイツリー","latitude":"35.7100627","longitude":"139.8107004","full_address":"スカイツリー 墨田区 東京都 日本 ","postal_code":null,"country":"日本","subdivision":"東京都","municipality":"墨田区","neighborhood":"押上"},{"venue_id":"tokyo_solamachi","title":"Tokyo Solamachi","latitude":"35.7102333","longitude":"139.8115747","full_address":"Tokyo Solamachi 墨田区 東京都 日本 ","postal_code":null,"country":"日本","subdivision":"東京都","municipality":"墨田区","neighborhood":"押上"},{"venue_id":"大宮駅","title":"大宮駅","latitude":"35.9064485","longitude":"139.6238548","full_address":"大宮駅 大宮区 埼玉県 日本 ","postal_code":null,"country":"日本","subdivision":"埼玉県","municipality":"大宮区","neighborhood":"大宮"},{"venue_id":"zepp_haneda_tokyo","title":"Zepp Haneda Tokyo","latitude":"35.5473958","longitude":"139.7565213","full_address":"Zepp Haneda Tokyo 大田区 東京都 日本 ","postal_code":null,"country":"日本","subdivision":"東京都","municipality":"大田区","neighborhood":"羽田"},{"venue_id":"ララステージ","title":"ララステージ","latitude":"36.581758","longitude":"139.84955","full_address":"ララステージ 宇都宮市 栃木県 日本 ","postal_code":null,"country":"日本","subdivision":"栃木県","municipality":"宇都宮市","neighborhood":"宇都宮"},{"venue_id":"ウラプロ劇場","title":"ウラプロ劇場","latitude":"35.814333","longitude":"139.7027443","full_address":"ウラプロ劇場 川口市 埼玉県 日本 ","postal_code":null,"country":"日本","subdivision":"埼玉県","municipality":"川口市","neighborhood":"西川口"},{"venue_id":"健康中華_青蓮_川崎西口店","title":"健康中華 青蓮 川崎西口店","latitude":"35.5350913","longitude":"139.7000512","full_address":"健康中華 青蓮 川崎西口店 川崎市 神奈川県 日本 ","postal_code":null,"country":"日本","subdivision":"神奈川県","municipality":"川崎市","neighborhood":"川崎"},{"venue_id":"神田明神_edocco_studio","title":"神田明神 Edocco Studio","latitude":"35.7018242","longitude":"139.7673975","full_address":"神田明神 Edocco Studio 千代田区 東京都 日本 ","postal_code":null,"country":"日本","subdivision":"東京都","municipality":"千代田区","neighborhood":"秋葉原"},{"venue_id":"小石川病院","title":"小石川病院","latitude":"35.7222725","longitude":"139.7318743","full_address":"小石川病院 文京区 東京都 日本 ","postal_code":null,"country":"日本","subdivision":"東京都","municipality":"文京区","neighborhood":"茗荷谷"},{"venue_id":"撮影スタジオ_ル・ボヤージュ","title":"撮影スタジオ ル・ボヤージュ","latitude":"35.7162685","longitude":"139.6957705","full_address":"撮影スタジオ ル・ボヤージュ 新宿区 東京都 日本 ","postal_code":null,"country":"日本","subdivision":"東京都","municipality":"新宿区","neighborhood":"下落合"},{"venue_id":"四谷lotus","title":"四谷LOTUS","latitude":"35.6878469","longitude":"139.7217255","full_address":"四谷LOTUS 新宿区 東京都 日本 ","postal_code":null,"country":"日本","subdivision":"東京都","municipality":"新宿区","neighborhood":"四谷"},{"venue_id":"新宿headpower","title":"新宿HEADPOWER","latitude":"35.7029809","longitude":"139.7081503","full_address":"新宿HEADPOWER 新宿区 東京都 日本 ","postal_code":null,"country":"日本","subdivision":"東京都","municipality":"新宿区","neighborhood":"東新宿"},{"venue_id":"新宿marz","title":"新宿Marz","latitude":"35.6963728","longitude":"139.700707","full_address":"新宿Marz 新宿区 東京都 日本 ","postal_code":null,"country":"日本","subdivision":"東京都","municipality":"新宿区","neighborhood":"新宿"},{"venue_id":"新宿reny","title":"新宿ReNY","latitude":"35.6926976","longitude":"139.6925046","full_address":"新宿ReNY 新宿区 東京都 日本 ","postal_code":null,"country":"日本","subdivision":"東京都","municipality":"新宿区","neighborhood":"新宿"},{"venue_id":"新宿アルタkeystudio","title":"新宿アルタKeyStudio","latitude":"35.6927177","longitude":"139.7012511","full_address":"新宿アルタKeyStudio 新宿区 東京都 日本 ","postal_code":null,"country":"日本","subdivision":"東京都","municipality":"新宿区","neighborhood":"新宿"},{"venue_id":"新宿sunface","title":"新宿SUNFACE","latitude":"35.6934113","longitude":"139.7071271","full_address":"新宿SUNFACE 新宿区 東京都 日本 ","postal_code":null,"country":"日本","subdivision":"東京都","municipality":"新宿区","neighborhood":"新宿"},{"venue_id":"merry_go_round","title":"Merry Go Round","latitude":"35.6903566","longitude":"139.7121179","full_address":"Merry Go Round 新宿区 東京都 日本 ","postal_code":null,"country":"日本","subdivision":"東京都","municipality":"新宿区","neighborhood":"東新宿"},{"venue_id":"batur_tokyo","title":"Batur Tokyo","latitude":"35.6976496","longitude":"139.7062553","full_address":"Batur Tokyo 新宿区 東京都 日本 ","postal_code":null,"country":"日本","subdivision":"東京都","municipality":"新宿区","neighborhood":"歌舞伎町"},{"venue_id":"blaze","title":"Blaze","latitude":"35.6954583","longitude":"139.7009914","full_address":"Blaze 新宿区 東京都 日本 ","postal_code":null,"country":"日本","subdivision":"東京都","municipality":"新宿区","neighborhood":"歌舞伎町"},{"venue_id":"zirco_tokyo","title":"Zirco Tokyo","latitude":"35.6937548","longitude":"139.7038714","full_address":"Zirco Tokyo 新宿区 東京都 日本 ","postal_code":null,"country":"日本","subdivision":"東京都","municipality":"新宿区","neighborhood":"歌舞伎町"},{"venue_id":"ジールシアター","title":"ジールシアター","latitude":"35.6965966","longitude":"139.7011105","full_address":"ジールシアター 新宿区 東京都 日本 ","postal_code":null,"country":"日本","subdivision":"東京都","municipality":"新宿区","neighborhood":"歌舞伎町"},{"venue_id":"ナインスパイス","title":"ナインスパイス","latitude":"35.6949421","longitude":"139.7063478","full_address":"ナインスパイス 新宿区 東京都 日本 ","postal_code":null,"country":"日本","subdivision":"東京都","municipality":"新宿区","neighborhood":"歌舞伎町"},{"venue_id":"新宿fate","title":"新宿Fate","latitude":"35.6961162","longitude":"139.7035244","full_address":"新宿Fate 新宿区 東京都 日本 ","postal_code":null,"country":"日本","subdivision":"東京都","municipality":"新宿区","neighborhood":"歌舞伎町"},{"venue_id":"新宿holiday","title":"新宿Holiday","latitude":"35.6957239","longitude":"139.7037819","full_address":"新宿Holiday 新宿区 東京都 日本 ","postal_code":null,"country":"日本","subdivision":"東京都","municipality":"新宿区","neighborhood":"歌舞伎町"},{"venue_id":"新宿samurai","title":"新宿Samurai","latitude":"35.697905","longitude":"139.7017998","full_address":"新宿Samurai 新宿区 東京都 日本 ","postal_code":null,"country":"日本","subdivision":"東京都","municipality":"新宿区","neighborhood":"歌舞伎町"},{"venue_id":"新宿science","title":"新宿Science","latitude":"35.6954844","longitude":"139.7035426","full_address":"新宿Science 新宿区 東京都 日本 ","postal_code":null,"country":"日本","subdivision":"東京都","municipality":"新宿区","neighborhood":"歌舞伎町"},{"venue_id":"新宿wally","title":"新宿Wally","latitude":"35.694761","longitude":"139.7044223","full_address":"新宿Wally 新宿区 東京都 日本 ","postal_code":null,"country":"日本","subdivision":"東京都","municipality":"新宿区","neighborhood":"歌舞伎町"},{"venue_id":"新宿loft","title":"新宿Loft","latitude":"35.6955262","longitude":"139.7025835","full_address":"新宿Loft 新宿区 東京都 日本 ","postal_code":null,"country":"日本","subdivision":"東京都","municipality":"新宿区","neighborhood":"歌舞伎町"},{"venue_id":"ベルサール西新宿","title":"ベルサール西新宿","latitude":"35.6895065","longitude":"139.6882146","full_address":"ベルサール西新宿 新宿区 東京都 日本 ","postal_code":null,"country":"日本","subdivision":"東京都","municipality":"新宿区","neighborhood":"西新宿"},{"venue_id":"navi_cafe","title":"navi cafe","latitude":"35.701082","longitude":"139.7020865","full_address":"navi cafe 新宿区 東京都 日本 ","postal_code":null,"country":"日本","subdivision":"東京都","municipality":"新宿区","neighborhood":"西新宿"},{"venue_id":"新高円寺loft_x","title":"新高円寺LOFT X","latitude":"35.6975964","longitude":"139.6461882","full_address":"新高円寺LOFT X 杉並区 東京都 日本 ","postal_code":null,"country":"日本","subdivision":"東京都","municipality":"杉並区","neighborhood":"新高円寺"},{"venue_id":"西永福jam","title":"西永福JAM","latitude":"35.6782783","longitude":"139.6350676","full_address":"西永福JAM 杉並区 東京都 日本 ","postal_code":null,"country":"日本","subdivision":"東京都","municipality":"杉並区","neighborhood":"西永福"},{"venue_id":"高円寺high","title":"高円寺HIGH","latitude":"35.703585","longitude":"139.6510851","full_address":"高円寺HIGH 杉並区 東京都 日本 ","postal_code":null,"country":"日本","subdivision":"東京都","municipality":"杉並区","neighborhood":"高円寺"},{"venue_id":"kt_zepp横浜","title":"KT Zepp横浜","latitude":"35.4596908","longitude":"139.6258804","full_address":"KT Zepp横浜 横浜市 神奈川県 日本 ","postal_code":null,"country":"日本","subdivision":"神奈川県","municipality":"横浜市","neighborhood":"みなとみらい"},{"venue_id":"yokohama_bay_hall","title":"Yokohama Bay Hall","latitude":"35.4416575","longitude":"139.6611119","full_address":"Yokohama Bay Hall 横浜市 神奈川県 日本 ","postal_code":null,"country":"日本","subdivision":"神奈川県","municipality":"横浜市","neighborhood":"元町"},{"venue_id":"yokohama_arena","title":"Yokohama Arena","latitude":"35.5122721","longitude":"139.6201797","full_address":"Yokohama Arena 横浜市 神奈川県 日本 ","postal_code":null,"country":"日本","subdivision":"神奈川県","municipality":"横浜市","neighborhood":"新横浜"},{"venue_id":"1000_club","title":"1000 Club","latitude":"35.4631934","longitude":"139.6187723","full_address":"1000 Club 横浜市 神奈川県 日本 ","postal_code":null,"country":"日本","subdivision":"神奈川県","municipality":"横浜市","neighborhood":"横浜"},{"venue_id":"mint_hall","title":"Mint Hall","latitude":"35.463791","longitude":"139.6189919","full_address":"Mint Hall 横浜市 神奈川県 日本 ","postal_code":null,"country":"日本","subdivision":"神奈川県","municipality":"横浜市","neighborhood":"横浜"},{"venue_id":"club_seata","title":"CLUB SEATA","latitude":"35.7057846","longitude":"139.581796","full_address":"CLUB SEATA 武蔵野市 東京都 日本 ","postal_code":null,"country":"日本","subdivision":"東京都","municipality":"武蔵野市","neighborhood":"吉祥寺"},{"venue_id":"スタジオあさだや","title":"スタジオあさだや","latitude":"35.7024028","longitude":"139.8527689","full_address":"スタジオあさだや 江戸川区 東京都 日本 ","postal_code":null,"country":"日本","subdivision":"東京都","municipality":"江戸川区","neighborhood":"平井"},{"venue_id":"新木場studio_coast","title":"新木場Studio Coast","latitude":"35.6422007","longitude":"139.8253178","full_address":"新木場Studio Coast 江東区 東京都 日本 ","postal_code":null,"country":"日本","subdivision":"東京都","municipality":"江東区","neighborhood":"新木場"},{"venue_id":"club_malcom","title":"Club Malcom","latitude":"35.6609134","longitude":"139.6979734","full_address":"Club Malcom 渋谷区 東京都 日本 ","postal_code":null,"country":"日本","subdivision":"東京都","municipality":"渋谷区","neighborhood":"宇田川町"},{"venue_id":"pasela_grande_shibuya","title":"Pasela Grande Shibuya","latitude":"35.6611166","longitude":"139.7002715","full_address":"Pasela Grande Shibuya 渋谷区 東京都 日本 ","postal_code":null,"country":"日本","subdivision":"東京都","municipality":"渋谷区","neighborhood":"宇田川町"},{"venue_id":"muse_mode","title":"Muse Mode","latitude":"35.6648829","longitude":"139.7012964","full_address":"Muse Mode 渋谷区 東京都 日本 ","postal_code":null,"country":"日本","subdivision":"東京都","municipality":"渋谷区","neighborhood":"代々木"},{"venue_id":"代々木ミューズ","title":"代々木ミューズ","latitude":"35.6821697","longitude":"139.69369","full_address":"代々木ミューズ 渋谷区 東京都 日本 ","postal_code":null,"country":"日本","subdivision":"東京都","municipality":"渋谷区","neighborhood":"代々木"},{"venue_id":"space_odd","title":"Space Odd","latitude":"35.6533488","longitude":"139.7045887","full_address":"Space Odd 渋谷区 東京都 日本 ","postal_code":null,"country":"日本","subdivision":"東京都","municipality":"渋谷区","neighborhood":"代官山"},{"venue_id":"スタジオキューブ西新宿","title":"スタジオキューブ西新宿","latitude":"35.6843841","longitude":"139.6834603","full_address":"スタジオキューブ西新宿 渋谷区 東京都 日本 ","postal_code":null,"country":"日本","subdivision":"東京都","municipality":"渋谷区","neighborhood":"初台"},{"venue_id":"belle_epoque_2","title":"Belle Epoque 2","latitude":"35.6535859","longitude":"139.7096464","full_address":"Belle Epoque 2 渋谷区 東京都 日本 ","postal_code":null,"country":"日本","subdivision":"東京都","municipality":"渋谷区","neighborhood":"原宿"},{"venue_id":"with_harajuku","title":"WITH HARAJUKU","latitude":"35.6705714","longitude":"139.7032257","full_address":"WITH HARAJUKU 渋谷区 東京都 日本 ","postal_code":null,"country":"日本","subdivision":"東京都","municipality":"渋谷区","neighborhood":"原宿"},{"venue_id":"原宿renon","title":"原宿RENON","latitude":"35.6699682","longitude":"139.709008","full_address":"原宿RENON 渋谷区 東京都 日本 ","postal_code":null,"country":"日本","subdivision":"東京都","municipality":"渋谷区","neighborhood":"原宿"},{"venue_id":"原宿周辺","title":"原宿周辺","latitude":"35.6699682","longitude":"139.709008","full_address":"原宿周辺 渋谷区 東京都 日本 ","postal_code":null,"country":"日本","subdivision":"東京都","municipality":"渋谷区","neighborhood":"原宿"},{"venue_id":"garret_udagawa","title":"Garret Udagawa","latitude":"35.6615216","longitude":"139.6985476","full_address":"Garret Udagawa 渋谷区 東京都 日本 ","postal_code":null,"country":"日本","subdivision":"東京都","municipality":"渋谷区","neighborhood":"宇田川町"},{"venue_id":"the_game","title":"The Game","latitude":"35.6624814","longitude":"139.6978947","full_address":"The Game 渋谷区 東京都 日本 ","postal_code":null,"country":"日本","subdivision":"東京都","municipality":"渋谷区","neighborhood":"宇田川町"},{"venue_id":"chic_hall","title":"Chic Hall","latitude":"35.6625331","longitude":"139.6989865","full_address":"Chic Hall 渋谷区 東京都 日本 ","postal_code":null,"country":"日本","subdivision":"東京都","municipality":"渋谷区","neighborhood":"宇田川町"},{"venue_id":"take_off_7","title":"Take Off 7","latitude":"35.6611204","longitude":"139.6974318","full_address":"Take Off 7 渋谷区 東京都 日本 ","postal_code":null,"country":"日本","subdivision":"東京都","municipality":"渋谷区","neighborhood":"宇田川町"},{"venue_id":"恵比寿creato","title":"恵比寿CreAto","latitude":"35.6513323","longitude":"139.7094591","full_address":"恵比寿CreAto 渋谷区 東京都 日本 ","postal_code":null,"country":"日本","subdivision":"東京都","municipality":"渋谷区","neighborhood":"恵比寿"},{"venue_id":"platinumgarage西新宿スタジオ","title":"PlatinumGarage西新宿スタジオ","latitude":"35.6913457","longitude":"139.69369","full_address":"PlatinumGarage西新宿スタジオ 渋谷区 東京都 日本 ","postal_code":null,"country":"日本","subdivision":"東京都","municipality":"渋谷区","neighborhood":"本町"},{"venue_id":"並木橋oldhaus","title":"並木橋OLDHAUS","latitude":"35.6555669","longitude":"139.7072308","full_address":"並木橋OLDHAUS 渋谷区 東京都 日本 ","postal_code":null,"country":"日本","subdivision":"東京都","municipality":"渋谷区","neighborhood":"東渋谷"},{"venue_id":"渋谷近未来会館","title":"渋谷近未来会館","latitude":"35.6610321","longitude":"139.70448","full_address":"渋谷近未来会館 渋谷区 東京都 日本 ","postal_code":null,"country":"日本","subdivision":"東京都","municipality":"渋谷区","neighborhood":"渋谷"},{"venue_id":"k2","title":"K2","latitude":"35.6568056","longitude":"139.701101","full_address":"K2 渋谷区 東京都 日本 ","postal_code":null,"country":"日本","subdivision":"東京都","municipality":"渋谷区","neighborhood":"桜ヶ丘"},{"venue_id":"さくらマンション","title":"さくらマンション","latitude":"35.6538946","longitude":"139.6990748","full_address":"さくらマンション 渋谷区 東京都 日本 ","postal_code":null,"country":"日本","subdivision":"東京都","municipality":"渋谷区","neighborhood":"桜丘町"},{"venue_id":"chelsea_hotel","title":"Chelsea Hotel","latitude":"35.6623931","longitude":"139.6978805","full_address":"Chelsea Hotel 渋谷区 東京都 日本 ","postal_code":null,"country":"日本","subdivision":"東京都","municipality":"渋谷区","neighborhood":"宇田川町"},{"venue_id":"msmilebox渋谷","title":"mSmileBOX渋谷","latitude":"35.658962","longitude":"139.7081839","full_address":"mSmileBOX渋谷 渋谷区 東京都 日本 ","postal_code":null,"country":"日本","subdivision":"東京都","municipality":"渋谷区","neighborhood":"渋谷"},{"venue_id":"shibuya_dive","title":"SHIBUYA DIVE","latitude":"35.653928","longitude":"139.7085408","full_address":"SHIBUYA DIVE 渋谷区 東京都 日本 ","postal_code":null,"country":"日本","subdivision":"東京都","municipality":"渋谷区","neighborhood":"東渋谷"},{"venue_id":"tower_records_shibuya","title":"TOWER RECORDS SHIBUYA","latitude":"35.661919","longitude":"139.7009949","full_address":"TOWER RECORDS SHIBUYA 渋谷区 東京都 日本 ","postal_code":null,"country":"日本","subdivision":"東京都","municipality":"渋谷区","neighborhood":"神南"},{"venue_id":"渋谷aube","title":"渋谷Aube","latitude":"35.6624224","longitude":"139.6978623","full_address":"渋谷Aube 渋谷区 東京都 日本 ","postal_code":null,"country":"日本","subdivision":"東京都","municipality":"渋谷区","neighborhood":"宇田川町"},{"venue_id":"bellesalle_shibuya_garden","title":"Bellesalle Shibuya Garden","latitude":"35.6538781","longitude":"139.6938606","full_address":"Bellesalle Shibuya Garden 渋谷区 東京都 日本 ","postal_code":null,"country":"日本","subdivision":"東京都","municipality":"渋谷区","neighborhood":"渋谷"},{"venue_id":"shibuya_stream_hall","title":"Shibuya Stream Hall","latitude":"35.6575589","longitude":"139.7025291","full_address":"Shibuya Stream Hall 渋谷区 東京都 日本 ","postal_code":null,"country":"日本","subdivision":"東京都","municipality":"渋谷区","neighborhood":"渋谷"},{"venue_id":"village_vanguard_shibuya","title":"Village Vanguard Shibuya","latitude":"35.6606932","longitude":"139.6976564","full_address":"Village Vanguard Shibuya 渋谷区 東京都 日本 ","postal_code":null,"country":"日本","subdivision":"東京都","municipality":"渋谷区","neighborhood":"渋谷"},{"venue_id":"渋谷eggman","title":"渋谷Eggman","latitude":"35.6644172","longitude":"139.6992199","full_address":"渋谷Eggman 渋谷区 東京都 日本 ","postal_code":null,"country":"日本","subdivision":"東京都","municipality":"渋谷区","neighborhood":"神南"},{"venue_id":"club_camelot","title":"Club Camelot","latitude":"35.66266","longitude":"139.700037","full_address":"Club Camelot 渋谷区 東京都 日本 ","postal_code":null,"country":"日本","subdivision":"東京都","municipality":"渋谷区","neighborhood":"神南"},{"venue_id":"ap_shibuya_dogenzaka","title":"AP Shibuya Dogenzaka","latitude":"35.6591519","longitude":"139.6988791","full_address":"AP Shibuya Dogenzaka 渋谷区 東京都 日本 ","postal_code":null,"country":"日本","subdivision":"東京都","municipality":"渋谷区","neighborhood":"道玄坂"},{"venue_id":"chapter1","title":"Chapter1","latitude":"35.6585607","longitude":"139.6984167","full_address":"Chapter1 渋谷区 東京都 日本 ","postal_code":null,"country":"日本","subdivision":"東京都","municipality":"渋谷区","neighborhood":"道玄坂"},{"venue_id":"club_asia","title":"Club Asia","latitude":"35.6589974","longitude":"139.6953088","full_address":"Club Asia 渋谷区 東京都 日本 ","postal_code":null,"country":"日本","subdivision":"東京都","municipality":"渋谷区","neighborhood":"道玄坂"},{"venue_id":"deseo","title":"Deseo","latitude":"35.6583625","longitude":"139.6957219","full_address":"Deseo 渋谷区 東京都 日本 ","postal_code":null,"country":"日本","subdivision":"東京都","municipality":"渋谷区","neighborhood":"道玄坂"},{"venue_id":"deseo_mini","title":"Deseo Mini","latitude":"35.6583797","longitude":"139.695652","full_address":"Deseo Mini 渋谷区 東京都 日本 ","postal_code":null,"country":"日本","subdivision":"東京都","municipality":"渋谷区","neighborhood":"道玄坂"},{"venue_id":"dr._jeekhan's","title":"Dr. Jeekhan's","latitude":"35.6583068","longitude":"139.6952489","full_address":"Dr. Jeekhan's 渋谷区 東京都 日本 ","postal_code":null,"country":"日本","subdivision":"東京都","municipality":"渋谷区","neighborhood":"道玄坂"},{"venue_id":"milky_way","title":"Milky Way","latitude":"35.6625048","longitude":"139.6978734","full_address":"Milky Way 渋谷区 東京都 日本 ","postal_code":null,"country":"日本","subdivision":"東京都","municipality":"渋谷区","neighborhood":"道玄坂"},{"venue_id":"o-crest","title":"O-Crest","latitude":"35.658733","longitude":"139.6955876","full_address":"O-Crest 渋谷区 東京都 日本 ","postal_code":null,"country":"日本","subdivision":"東京都","municipality":"渋谷区","neighborhood":"道玄坂"},{"venue_id":"o-east","title":"O-East","latitude":"35.6587215","longitude":"139.6956111","full_address":"O-East 渋谷区 東京都 日本 ","postal_code":null,"country":"日本","subdivision":"東京都","municipality":"渋谷区","neighborhood":"道玄坂"},{"venue_id":"o-nest","title":"O-nest","latitude":"35.658507","longitude":"139.69529","full_address":"O-nest 渋谷区 東京都 日本 ","postal_code":null,"country":"日本","subdivision":"東京都","municipality":"渋谷区","neighborhood":"道玄坂"},{"venue_id":"sound_museum_vision","title":"Sound Museum Vision","latitude":"35.6580048","longitude":"139.6967505","full_address":"Sound Museum Vision 渋谷区 東京都 日本 ","postal_code":null,"country":"日本","subdivision":"東京都","municipality":"渋谷区","neighborhood":"道玄坂"},{"venue_id":"womb","title":"WOMB","latitude":"35.6619707","longitude":"139.703795","full_address":"WOMB 渋谷区 東京都 日本 ","postal_code":null,"country":"日本","subdivision":"東京都","municipality":"渋谷区","neighborhood":"道玄坂"},{"venue_id":"スターラウンジ","title":"スターラウンジ","latitude":"35.6623931","longitude":"139.6978805","full_address":"スターラウンジ 渋谷区 東京都 日本 ","postal_code":null,"country":"日本","subdivision":"東京都","municipality":"渋谷区","neighborhood":"宇田川町"},{"venue_id":"渋谷rex","title":"渋谷Rex","latitude":"35.6574041","longitude":"139.6969209","full_address":"渋谷Rex 渋谷区 東京都 日本 ","postal_code":null,"country":"日本","subdivision":"東京都","municipality":"渋谷区","neighborhood":"道玄坂"},{"venue_id":"道玄坂スクエア","title":"道玄坂スクエア","latitude":"35.657172","longitude":"139.6955846","full_address":"道玄坂スクエア 渋谷区 東京都 日本 ","postal_code":null,"country":"日本","subdivision":"東京都","municipality":"渋谷区","neighborhood":"道玄坂"},{"venue_id":"渋谷ring","title":"渋谷RING","latitude":"35.6589691","longitude":"139.6956478","full_address":"渋谷RING 渋谷区 東京都 日本 ","postal_code":null,"country":"日本","subdivision":"東京都","municipality":"渋谷区","neighborhood":"道玄坂"},{"venue_id":"grit_at_shibuya","title":"Grit at Shibuya","latitude":"35.6600314","longitude":"139.6959636","full_address":"Grit at Shibuya 渋谷区 東京都 日本 ","postal_code":null,"country":"日本","subdivision":"東京都","municipality":"渋谷区","neighborhood":"道玄坂"},{"venue_id":"glad","title":"Glad","latitude":"35.6626557","longitude":"139.712633","full_address":"Glad 渋谷区 東京都 日本 ","postal_code":null,"country":"日本","subdivision":"東京都","municipality":"渋谷区","neighborhood":"道玄坂"},{"venue_id":"duo_music_exchange","title":"duo Music Exchange","latitude":"35.6586331","longitude":"139.6955279","full_address":"duo Music Exchange 渋谷区 東京都 日本 ","postal_code":null,"country":"日本","subdivision":"東京都","municipality":"渋谷区","neighborhood":"道玄坂"},{"venue_id":"渋谷daia","title":"渋谷DAIA","latitude":"35.660086","longitude":"139.695951","full_address":"渋谷DAIA 渋谷区 東京都 日本 ","postal_code":null,"country":"日本","subdivision":"東京都","municipality":"渋谷区","neighborhood":"道玄坂"},{"venue_id":"zepp_divercity_tokyo","title":"Zepp DiverCity Tokyo","latitude":"35.6247477","longitude":"139.7745909","full_address":"Zepp DiverCity Tokyo 港区 東京都 日本 ","postal_code":null,"country":"日本","subdivision":"東京都","municipality":"港区","neighborhood":"お台場"},{"venue_id":"maharaja","title":"Maharaja","latitude":"35.6627267","longitude":"139.7322322","full_address":"Maharaja 港区 東京都 日本 ","postal_code":null,"country":"日本","subdivision":"東京都","municipality":"港区","neighborhood":"六本木"},{"venue_id":"tokyo_midtown","title":"Tokyo Midtown","latitude":"35.6659803","longitude":"139.7308747","full_address":"Tokyo Midtown 港区 東京都 日本 ","postal_code":null,"country":"日本","subdivision":"東京都","municipality":"港区","neighborhood":"六本木"},{"venue_id":"青山rizm","title":"青山Rizm","latitude":"35.6722696","longitude":"139.7217407","full_address":"青山Rizm 港区 東京都 日本 ","postal_code":null,"country":"日本","subdivision":"東京都","municipality":"港区","neighborhood":"青山"},{"venue_id":"お花茶屋_森谷邸","title":"お花茶屋 森谷邸","latitude":"35.7439","longitude":"139.8365587","full_address":"お花茶屋 森谷邸 葛飾区 東京都 日本 ","postal_code":null,"country":"日本","subdivision":"東京都","municipality":"葛飾区","neighborhood":"お花茶屋"},{"venue_id":"大塚deepa","title":"大塚Deepa","latitude":"35.73041","longitude":"139.72809","full_address":"大塚Deepa 豊島区 東京都 日本 ","postal_code":null,"country":"日本","subdivision":"東京都","municipality":"豊島区","neighborhood":"大塚"},{"venue_id":"大塚hearts+","title":"大塚Hearts+","latitude":"35.7331665","longitude":"139.7285474","full_address":"大塚Hearts+ 豊島区 東京都 日本 ","postal_code":null,"country":"日本","subdivision":"東京都","municipality":"豊島区","neighborhood":"大塚"},{"venue_id":"池袋akビル","title":"池袋AKビル","latitude":"35.730049","longitude":"139.713806","full_address":"池袋AKビル 豊島区 東京都 日本 ","postal_code":null,"country":"日本","subdivision":"東京都","municipality":"豊島区","neighborhood":"池袋"},{"venue_id":"池袋sound_peace","title":"池袋SOUND PEACE","latitude":"35.7344575","longitude":"139.7110032","full_address":"池袋SOUND PEACE 豊島区 東京都 日本 ","postal_code":null,"country":"日本","subdivision":"東京都","municipality":"豊島区","neighborhood":"池袋"},{"venue_id":"池袋リヴォイス","title":"池袋リヴォイス","latitude":"35.7324189","longitude":"139.7066766","full_address":"池袋リヴォイス 豊島区 東京都 日本 ","postal_code":null,"country":"日本","subdivision":"東京都","municipality":"豊島区","neighborhood":"池袋"},{"venue_id":"池袋東口ゲキパ","title":"池袋東口ゲキパ","latitude":"35.7284904","longitude":"139.7132172","full_address":"池袋東口ゲキパ 豊島区 東京都 日本 ","postal_code":null,"country":"日本","subdivision":"東京都","municipality":"豊島区","neighborhood":"池袋"},{"venue_id":"池袋東急ハンズ","title":"池袋東急ハンズ","latitude":"35.7297989","longitude":"139.7164291","full_address":"池袋東急ハンズ 豊島区 東京都 日本 ","postal_code":null,"country":"日本","subdivision":"東京都","municipality":"豊島区","neighborhood":"池袋"},{"venue_id":"blackhole_studio","title":"blackhole studio","latitude":"35.7320942","longitude":"139.7078222","full_address":"blackhole studio 豊島区 東京都 日本 ","postal_code":null,"country":"日本","subdivision":"東京都","municipality":"豊島区","neighborhood":"池袋"},{"venue_id":"live_inn_rosa","title":"Live Inn Rosa","latitude":"35.7322222","longitude":"139.7091667","full_address":"Live Inn Rosa 豊島区 東京都 日本 ","postal_code":null,"country":"日本","subdivision":"東京都","municipality":"豊島区","neighborhood":"池袋"},{"venue_id":"男装喫茶double","title":"男装喫茶DOUBLE","latitude":"35.7329224","longitude":"139.7094163","full_address":"男装喫茶DOUBLE 豊島区 東京都 日本 ","postal_code":null,"country":"日本","subdivision":"東京都","municipality":"豊島区","neighborhood":"池袋"},{"venue_id":"mismatch_ikebukuro","title":"mismatch Ikebukuro","latitude":"35.7333426","longitude":"139.7141731","full_address":"mismatch Ikebukuro 豊島区 東京都 日本 ","postal_code":null,"country":"日本","subdivision":"東京都","municipality":"豊島区","neighborhood":"池袋"},{"venue_id":"エンタメ横丁","title":"エンタメ横丁","latitude":"35.731002","longitude":"139.7137159","full_address":"エンタメ横丁 豊島区 東京都 日本 ","postal_code":null,"country":"日本","subdivision":"東京都","municipality":"豊島区","neighborhood":"池袋"},{"venue_id":"沖縄cyberbox","title":"沖縄Cyberbox","latitude":"26.2194492","longitude":"127.6753735","full_address":"沖縄Cyberbox 那覇市 沖縄県 日本 ","postal_code":null,"country":"日本","subdivision":"沖縄県","municipality":"那覇市","neighborhood":"松山"},{"venue_id":"国際通り","title":"国際通り","latitude":"26.2151476","longitude":"127.6847454","full_address":"国際通り 那覇市 沖縄県 日本 ","postal_code":null,"country":"日本","subdivision":"沖縄県","municipality":"那覇市","neighborhood":"那覇"},{"venue_id":"郵送","title":"郵送","latitude":"35.6546475","longitude":"139.7560323","full_address":"郵送 郵便局 郵便局 世界 ","postal_code":null,"country":"世界","subdivision":"郵便局","municipality":"郵便局","neighborhood":"郵便局"},{"venue_id":"sound_shower_ark_shimizu","title":"SOUND SHOWER ark Shimizu","latitude":"35.010983","longitude":"138.4919431","full_address":"SOUND SHOWER ark Shimizu 静岡市 静岡県 日本 ","postal_code":null,"country":"日本","subdivision":"静岡県","municipality":"静岡市","neighborhood":"清水区"},{"venue_id":"清水マリーナサーカス","title":"清水マリーナサーカス","latitude":"35.0098369","longitude":"138.4936132","full_address":"清水マリーナサーカス 静岡市 静岡県 日本 ","postal_code":null,"country":"日本","subdivision":"静岡県","municipality":"静岡市","neighborhood":"清水区"},{"venue_id":"hmv&books_shibuya","title":"HMV&BOOKS SHIBUYA","latitude":"35.6613889","longitude":"139.7006389","full_address":"HMV&BOOKS SHIBUYA 渋谷区 東京都 日本 ","postal_code":null,"country":"日本","subdivision":"東京都","municipality":"渋谷区","neighborhood":"神南"},{"venue_id":"livehouse_only_you","title":"LiveHouse Only You","latitude":"35.735303","longitude":"139.7113084","full_address":"LiveHouse Only You 豊島区 東京都 日本 ","postal_code":null,"country":"日本","subdivision":"東京都","municipality":"豊島区","neighborhood":"池袋"},{"venue_id":"山中湖交流プラザきらら","title":"山中湖交流プラザきらら","latitude":"35.4204484","longitude":"138.9009377","full_address":"山中湖交流プラザきらら 山中湖村 山梨県 日本 ","postal_code":null,"country":"日本","subdivision":"山梨県","municipality":"山中湖村","neighborhood":"平野"},{"venue_id":"旭日丘湖畔緑地公園","title":"旭日丘湖畔緑地公園","latitude":"35.4082705","longitude":"138.8786942","full_address":"旭日丘湖畔緑地公園 山中湖村 山梨県 日本 ","postal_code":null,"country":"日本","subdivision":"山梨県","municipality":"山中湖村","neighborhood":"平野"},{"venue_id":"crypto_akasaka","title":"CrYpto Akasaka","latitude":"35.6710403","longitude":"139.7345469","full_address":"CrYpto Akasaka 港区 東京都 日本 ","postal_code":null,"country":"日本","subdivision":"東京都","municipality":"港区","neighborhood":"赤坂"},{"venue_id":"渋谷studio_freedom","title":"渋谷Studio Freedom","latitude":"35.6599967","longitude":"139.6959347","full_address":"渋谷Studio Freedom 渋谷区 東京都 日本 ","postal_code":null,"country":"日本","subdivision":"東京都","municipality":"渋谷区","neighborhood":"道玄坂"},{"venue_id":"白金高輪selene_studio_selene_b2","title":"白金高輪SELENE STUDIO SELENE b2","latitude":"35.6479651","longitude":"139.7383382","full_address":"白金高輪SELENE STUDIO SELENE b2 港区 東京都 日本 ","postal_code":null,"country":"日本","subdivision":"東京都","municipality":"港区","neighborhood":"白金高輪"},{"venue_id":"hotel_wing_international_shibuya","title":"Hotel Wing International Shibuya","latitude":"35.66257","longitude":"139.6983586","full_address":"Hotel Wing International Shibuya 渋谷区 東京都 日本 ","postal_code":null,"country":"日本","subdivision":"東京都","municipality":"渋谷区","neighborhood":"宇田川町"},{"venue_id":"tokorozawa_japan_pavilion","title":"Tokorozawa Japan Pavilion","latitude":"35.7969654","longitude":"139.5080275","full_address":"Tokorozawa Japan Pavilion 所沢市 埼玉県 日本 ","postal_code":null,"country":"日本","subdivision":"埼玉県","municipality":"所沢市","neighborhood":"東所沢"},{"venue_id":"citrus","title":"Citrus","latitude":"35.6552877","longitude":"139.7068737","full_address":"Citrus 渋谷区 東京都 日本 ","postal_code":null,"country":"日本","subdivision":"東京都","municipality":"渋谷区","neighborhood":"道玄坂"},{"venue_id":"basement_monstar_oji","title":"Basement Monstar Oji","latitude":"35.7555536","longitude":"139.7382378","full_address":"Basement Monstar Oji 北区 東京都 日本 ","postal_code":null,"country":"日本","subdivision":"東京都","municipality":"北区","neighborhood":"王子"},{"venue_id":"moon_romantic","title":"Moon Romantic","latitude":"35.6673377","longitude":"139.7181665","full_address":"Moon Romantic 港区 東京都 日本 ","postal_code":null,"country":"日本","subdivision":"東京都","municipality":"港区","neighborhood":"南青山"},{"venue_id":"横浜みなとみらいブロンテ","title":"横浜みなとみらいブロンテ","latitude":"35.4616899","longitude":"139.6322501","full_address":"横浜みなとみらいブロンテ 横浜市 東京都 日本 ","postal_code":null,"country":"日本","subdivision":"東京都","municipality":"横浜市","neighborhood":"みなとみらい"},{"venue_id":"王立アフィリア・スターズ","title":"王立アフィリア・スターズ","latitude":"35.6632884","longitude":"139.7329703","full_address":"王立アフィリア・スターズ 港区 東京都 日本 ","postal_code":null,"country":"日本","subdivision":"東京都","municipality":"港区","neighborhood":"六本木"},{"venue_id":"landmark_hall","title":"Landmark Hall","latitude":"35.4553037","longitude":"139.6308415","full_address":"Landmark Hall 横浜市 東京都 日本 ","postal_code":null,"country":"日本","subdivision":"東京都","municipality":"横浜市","neighborhood":"みなとみらい"},{"venue_id":"gotanda_g4","title":"Gotanda G4","latitude":"35.6241707","longitude":"139.723305","full_address":"Gotanda G4 品川区 東京都 日本 ","postal_code":null,"country":"日本","subdivision":"東京都","municipality":"品川区","neighborhood":"五反田"},{"venue_id":"wildmagic_-_the_rainbow_farm_-","title":"WILDMAGIC - The Rainbow Farm -","latitude":"35.6501","longitude":"139.7891833","full_address":"WILDMAGIC - The Rainbow Farm - 江東区 東京都 日本 ","postal_code":null,"country":"日本","subdivision":"東京都","municipality":"江東区","neighborhood":"豊洲"},{"venue_id":"milk_studio","title":"Milk Studio","latitude":"35.7007483","longitude":"139.7697207","full_address":"Milk Studio 千代田区 東京都 日本 ","postal_code":null,"country":"日本","subdivision":"東京都","municipality":"千代田区","neighborhood":"秋葉原"},{"venue_id":"渋谷cyclone","title":"渋谷Cyclone","latitude":"35.6614585","longitude":"139.6985329","full_address":"渋谷Cyclone 渋谷区 東京都 日本 ","postal_code":null,"country":"日本","subdivision":"東京都","municipality":"渋谷区","neighborhood":"宇田川町"},{"venue_id":"p.a.r.m.s秋葉原店","title":"P.A.R.M.S秋葉原店","latitude":"35.6977571","longitude":"139.7703742","full_address":"P.A.R.M.S秋葉原店 千代田区 東京都 日本 ","postal_code":null,"country":"日本","subdivision":"東京都","municipality":"千代田区","neighborhood":"秋葉原"},{"venue_id":"gotanda_g3","title":"Gotanda G3","latitude":"35.6265188","longitude":"139.7233535","full_address":"Gotanda G3 品川区 東京都 日本 ","postal_code":null,"country":"日本","subdivision":"東京都","municipality":"品川区","neighborhood":"五反田"},{"venue_id":"なかのzero","title":"なかのZERO","latitude":"35.7044607","longitude":"139.6717429","full_address":"なかのZERO 中野区 東京都 日本 ","postal_code":null,"country":"日本","subdivision":"東京都","municipality":"中野区","neighborhood":"中野"},{"venue_id":"青海r地区","title":"青海R地区","latitude":"35.6236139","longitude":"139.7772101","full_address":"青海R地区 江東区 東京都 日本 ","postal_code":null,"country":"日本","subdivision":"東京都","municipality":"江東区","neighborhood":"お台場"},{"venue_id":"com_cafe音倉","title":"Com Cafe音倉","latitude":"35.6624985","longitude":"139.6668001","full_address":"Com Cafe音倉 世田谷区 東京都 日本 ","postal_code":null,"country":"日本","subdivision":"東京都","municipality":"世田谷区","neighborhood":"下北沢"},{"venue_id":"ワールド宇田川ビル","title":"ワールド宇田川ビル","latitude":"35.6617877","longitude":"139.6974793","full_address":"ワールド宇田川ビル 渋谷区 東京都 日本 ","postal_code":null,"country":"日本","subdivision":"東京都","municipality":"渋谷区","neighborhood":"宇田川町"},{"venue_id":"cutup_studio","title":"Cutup Studio","latitude":"35.6619373","longitude":"139.7011022","full_address":"Cutup Studio 渋谷区 東京都 日本 ","postal_code":null,"country":"日本","subdivision":"東京都","municipality":"渋谷区","neighborhood":"神南"},{"venue_id":"cafe&bar_perfetta","title":"Cafe&Bar Perfetta","latitude":"35.6746693","longitude":"139.7378198","full_address":"Cafe&Bar Perfetta 港区 東京都 日本 ","postal_code":null,"country":"日本","subdivision":"東京都","municipality":"港区","neighborhood":"赤坂"},{"venue_id":"unravel_tokyo","title":"unravel tokyo","latitude":"35.6642183","longitude":"139.7315335","full_address":"unravel tokyo 港区 東京都 日本 ","postal_code":null,"country":"日本","subdivision":"東京都","municipality":"港区","neighborhood":"六本木"},{"venue_id":"mag's_park","title":"Mag's Park","latitude":"35.6596547","longitude":"139.7008219","full_address":"Mag's Park 渋谷区 東京都 日本 ","postal_code":null,"country":"日本","subdivision":"東京都","municipality":"渋谷区","neighborhood":"神南"},{"venue_id":"ガールズバーnaia_五反田","title":"ガールズバーNaia 五反田","latitude":"35.6267603","longitude":"139.7226264","full_address":"ガールズバーNaia 五反田 品川区 東京都 日本 ","postal_code":null,"country":"日本","subdivision":"東京都","municipality":"品川区","neighborhood":"五反田"},{"venue_id":"gorilla_chop","title":"Gorilla Chop","latitude":"26.6361875","longitude":"127.8830625","full_address":"Gorilla Chop 国頭郡 沖縄県 日本 ","postal_code":null,"country":"日本","subdivision":"沖縄県","municipality":"国頭郡","neighborhood":"本部町"},{"venue_id":"igei_service_area","title":"Igei Service Area","latitude":"26.460654","longitude":"127.8705048","full_address":"Igei Service Area 国頭郡 沖縄県 日本 ","postal_code":null,"country":"日本","subdivision":"沖縄県","municipality":"国頭郡","neighborhood":"金武町伊芸"},{"venue_id":"hotel_collective","title":"Hotel Collective","latitude":"26.2152017","longitude":"127.6854253","full_address":"Hotel Collective 那覇市 沖縄県 日本 ","postal_code":null,"country":"日本","subdivision":"沖縄県","municipality":"那覇市","neighborhood":"国際通り松尾"},{"venue_id":"okashigoten","title":"Okashigoten","latitude":"26.2125758","longitude":"127.6790208","full_address":"Okashigoten 那覇市 沖縄県 日本 ","postal_code":null,"country":"日本","subdivision":"沖縄県","municipality":"那覇市","neighborhood":"国際通り松尾"},{"venue_id":"a&w","title":"A&W","latitude":"26.2125758","longitude":"127.6790208","full_address":"A&W 那覇市 沖縄県 日本 ","postal_code":null,"country":"日本","subdivision":"沖縄県","municipality":"那覇市","neighborhood":"国際通り松尾"},{"venue_id":"おきなわ屋_本店","title":"おきなわ屋 本店","latitude":"26.2155741","longitude":"127.6851757","full_address":"おきなわ屋 本店 那覇市 沖縄県 日本 ","postal_code":null,"country":"日本","subdivision":"沖縄県","municipality":"那覇市","neighborhood":"国際通り松尾"},{"venue_id":"okinawa_tourist_service_main_office","title":"Okinawa Tourist Service Main Office","latitude":"26.2137297","longitude":"127.6813162","full_address":"Okinawa Tourist Service Main Office 那覇市 沖縄県 日本 ","postal_code":null,"country":"日本","subdivision":"沖縄県","municipality":"那覇市","neighborhood":"国際通り松尾"},{"venue_id":"国際通り","title":"国際通り","latitude":"26.2151476","longitude":"127.6847454","full_address":"国際通り 那覇市 沖縄県 日本 ","postal_code":null,"country":"日本","subdivision":"沖縄県","municipality":"那覇市","neighborhood":"国際通り松尾"},{"venue_id":"ワイム貸会議室高田馬場","title":"ワイム貸会議室高田馬場","latitude":"35.7110729","longitude":"139.7043404","full_address":"ワイム貸会議室高田馬場 新宿区 東京都 日本 ","postal_code":null,"country":"日本","subdivision":"東京都","municipality":"新宿区","neighborhood":"高田馬場"},{"venue_id":"スタジオ_with_the_heart","title":"スタジオ With The Heart","latitude":"35.708197","longitude":"139.73413","full_address":"スタジオ With The Heart 文京区 東京都 日本 ","postal_code":null,"country":"日本","subdivision":"東京都","municipality":"文京区","neighborhood":"江戸川橋"},{"venue_id":"resort_magic","title":"Resort Magic","latitude":"26.2207197","longitude":"127.6644612","full_address":"Resort Magic 那覇市 沖縄県 日本 ","postal_code":null,"country":"日本","subdivision":"沖縄県","municipality":"那覇市","neighborhood":"波の上うみそら公園"},{"venue_id":"神田明神ホール","title":"神田明神ホール","latitude":"35.701851","longitude":"139.7672824","full_address":"神田明神ホール 千代田区 東京都 日本 ","postal_code":null,"country":"日本","subdivision":"東京都","municipality":"千代田区","neighborhood":"秋葉原"},{"venue_id":"bills","title":"Bills","latitude":"35.6686758","longitude":"139.7060558","full_address":"Bills 渋谷区 東京都 日本 ","postal_code":null,"country":"日本","subdivision":"東京都","municipality":"渋谷区","neighborhood":"原宿"},{"venue_id":"tower_records_yokohama","title":"Tower Records Yokohama","latitude":"35.4650739","longitude":"139.6183378","full_address":"Tower Records Yokohama 横浜市 神奈川県 日本 ","postal_code":null,"country":"日本","subdivision":"神奈川県","municipality":"横浜市","neighborhood":"横浜"},{"venue_id":"lumine_0","title":"Lumine 0","latitude":"35.6887813","longitude":"139.7013545","full_address":"Lumine 0 新宿区 東京都 日本 ","postal_code":null,"country":"日本","subdivision":"東京都","municipality":"新宿区","neighborhood":"新宿"},{"venue_id":"gotanda_g7","title":"Gotanda G7","latitude":"35.626679","longitude":"139.7225047","full_address":"Gotanda G7 品川区 東京都 日本 ","postal_code":null,"country":"日本","subdivision":"東京都","municipality":"品川区","neighborhood":"五反田"},{"venue_id":"アットビジネスセンター_渋谷東口駅前","title":"アットビジネスセンター 渋谷東口駅前","latitude":"35.6584833","longitude":"139.7035063","full_address":"アットビジネスセンター 渋谷東口駅前 渋谷区 東京都 日本 ","postal_code":null,"country":"日本","subdivision":"東京都","municipality":"渋谷区","neighborhood":"渋谷"},{"venue_id":"gotanda_g6","title":"Gotanda G6","latitude":"35.626679","longitude":"139.7225047","full_address":"Gotanda G7 品川区 東京都 日本 ","postal_code":null,"country":"日本","subdivision":"東京都","municipality":"品川区","neighborhood":"五反田"},{"venue_id":"新宿motion","title":"新宿Motion","latitude":"35.6963584","longitude":"139.7003907","full_address":"新宿Motion歌舞伎町新宿区東京都日本","postal_code":null,"country":"日本","subdivision":"東京都","municipality":"新宿区","neighborhood":"歌舞伎町"},{"venue_id":"shibuya_club_crawl","title":"Shibuya Club Crawl","latitude":"35.6545816","longitude":"139.7084674","full_address":"Shibuya Club Crawl渋谷渋谷区東京都日本","postal_code":null,"country":"日本","subdivision":"東京都","municipality":"渋谷区","neighborhood":"渋谷"},{"venue_id":"新宿駅南口","title":"新宿駅南口","latitude":"35.689318","longitude":"139.702822","full_address":"新宿駅南口新宿新宿区東京都日本","postal_code":null,"country":"日本","subdivision":"東京都","municipality":"新宿区","neighborhood":"新宿"},{"venue_id":"office_bit","title":"Office Bit","latitude":"35.7084877","longitude":"139.7291788","full_address":"〒162-0801 Tokyo, Shinjuku City, Yamabukichō, ３５３−31","postal_code":null,"country":"日本","subdivision":"東京都","municipality":"新宿区","neighborhood":"山吹町"},{"venue_id":"スタジオエコロ","title":"スタジオエコロ","latitude":"35.5574372","longitude":"139.7454565","full_address":"5 Chome-20-15 Higashikojiya, Ota City, Tokyo 144-0033","postal_code":null,"country":"日本","subdivision":"東京都","municipality":"大田区","neighborhood":"東糀谷"},{"venue_id":"o-west","title":"O-West","latitude":"35.6584922","longitude":"139.6953087","full_address":"〒150-0044 Tokyo, Shibuya City, Maruyamacho, 2−3 2F","postal_code":null,"country":"日本","subdivision":"東京都","municipality":"渋谷区","neighborhood":"道玄坂"},{"venue_id":"ライブカフェ＆バー_テイア\r","title":"ライブカフェ＆バー テイア\r","latitude":"35.7013916","longitude":"139.7718174","full_address":"〒102-0021 東京都千代田区外神田４丁目４−3, Ogiso Bldg, 6F","postal_code":null,"country":"日本","subdivision":"東京都","municipality":"千代田区","neighborhood":"秋葉原"},{"venue_id":"tokyo_dome_city_hall","title":"Tokyo Dome City Hall","latitude":"35.7031245","longitude":"139.7547268","full_address":"〒112-0004 東京都文京区後楽１丁目３−61 東京ドームミーツポート1F","postal_code":null,"country":"日本","subdivision":"東京都","municipality":"文京区","neighborhood":"Tokyo Dome City"},{"venue_id":"サンシャイン栄グランドキャニオン広場","title":"サンシャイン栄グランドキャニオン広場","latitude":"35.1695728","longitude":"136.9064983","full_address":"〒460-0003 愛知県名古屋市中区錦３丁目２４ グランドキャニオン広場","postal_code":null,"country":"日本","subdivision":"愛知県","municipality":"名古屋市","neighborhood":"栄"},{"venue_id":"y-city_hall","title":"Y-CITY HALL","latitude":"35.1600766","longitude":"136.9021101","full_address":"〒460-0011 愛知県名古屋市中区大須３丁目２４−44 大須セントラルスクエア 2F","postal_code":null,"country":"日本","subdivision":"愛知県","municipality":"名古屋市","neighborhood":"大須"},{"venue_id":"diamond_hall","title":"Diamond Hall","latitude":"35.1695417","longitude":"136.9204855","full_address":"〒460-0007 愛知県名古屋市中区新栄２丁目１−9 雲竜フレックスビル西館5F","postal_code":null,"country":"日本","subdivision":"愛知県","municipality":"名古屋市","neighborhood":"新栄"},{"venue_id":"the_bottom_line","title":"The Bottom Line","latitude":"35.1700571","longitude":"136.9385113","full_address":"〒464-0850 愛知県名古屋市千種区今池４丁目７−11 メトロビル","postal_code":null,"country":"日本","subdivision":"愛知県","municipality":"名古屋市","neighborhood":"今池"},{"venue_id":"海の森水上競技場","title":"海の森水上競技場","latitude":"35.6088052","longitude":"139.8177111","full_address":"〒135-0066 東京都江東区海の森３丁目６−44","postal_code":null,"country":"日本","subdivision":"江東区","municipality":"江東区","neighborhood":"お台場"},{"venue_id":"veats_shibuya","title":"Veats Shibuya","latitude":"35.6607517","longitude":"139.6973995","full_address":"〒150-0042 東京都渋谷区宇田川町３３−1 グランド東京渋谷ビル","postal_code":null,"country":"日本","subdivision":"東京都","municipality":"渋谷区","neighborhood":"宇田川町"},{"venue_id":"代官山unit","title":"代官山UNIT","latitude":"35.6470877","longitude":"139.7023197","full_address":"〒150-0021 東京都渋谷区恵比寿西１丁目３４−17 ZaHOUSE","postal_code":null,"country":"日本","subdivision":"東京都","municipality":"渋谷区","neighborhood":"代官山"},{"venue_id":"hado_arena_お台場店","title":"HADO ARENA お台場店","latitude":"35.627819","longitude":"139.773568","full_address":"〒135-0091 東京都台場１丁目７−1 東館５階 AQUA CITY ODAIBA","postal_code":null,"country":"日本","subdivision":"東京都","municipality":"港区","neighborhood":"お台場"},{"venue_id":"aoharium_tokyo","title":"AOHARIUM TOKYO","latitude":"35.6990838","longitude":"139.7775953","full_address":"〒101-0024 東京都千代田区神田和泉町1−2-19 石井ビル B1","postal_code":null,"country":"日本","subdivision":"東京都","municipality":"千代田区","neighborhood":"秋葉原"}]